[
  {
    "POST_DATE": "2013/5/23 下午 02:16:05",
    "CITY": "臺北市",
    "LON": "121.5431830",
    "ADDRESS": "臺北市11149仰德大道二段2巷50號",
    "PHONE": "02-28832666轉152",
    "CONTACT_NAME": "宋詠蓁",
    "L1_NAME": "銀髮族服務",
    "LAT": "25.1019460",
    "ZONE_CODE": "11149",
    "WEB_HOMEPAGE": "",
    "DEPT_NAME": "",
    "ADDRESS_CODE": "04025730489748716355",
    "FAX": "02-28801150",
    "DIVISION": "士林區",
    "ORG": {
      "INTRODUCTION": "◎委託財團法人天主教耕莘醫院永和分院一、個案照顧管理。二、長者生活照顧服務：個人衛生、安全維護、餐點、午憩、交通服務。三、協助及促進老人自我照顧能力。四、提供長者家屬教育方案、支持團體及聯誼性活動。",
      "TYPE": "06",
      "NAME": "臺北市至善老人安養護中心附設日間照顧",
      "GROUP_NAME": "臺北市老人日間照顧中心"
    },
    "L1_CODE": "04",
    "PERSON_IN_CHARGE": "馬漢光"
  },
  {
    "POST_DATE": "2014/3/24 上午 12:00:00",
    "CITY": "臺北市",
    "LON": "121.5843832",
    "ADDRESS": "臺北市11656政大二街129號",
    "PHONE": "02-86616365轉3105",
    "CONTACT_NAME": "羅淑娟",
    "L1_NAME": "銀髮族服務",
    "LAT": "24.9899577",
    "ZONE_CODE": "11656",
    "WEB_HOMEPAGE": "",
    "DEPT_NAME": "",
    "ADDRESS_CODE": "04025736372011899949",
    "FAX": "02-86618615",
    "DIVISION": "文山區",
    "ORG": {
      "INTRODUCTION": "◎委託財團法人臺北市私立恆安老人長期照顧中心(長期照護型)一、個案照顧管理。二、長者生活照顧服務：個人衛生、安全維護、餐點、午憩、交通服務。三、協助及促進老人自我照顧能力。四、提供長者家屬教育方案、支持團體及聯誼性活動。",
      "TYPE": "06",
      "NAME": "臺北市兆如老人安養護中心附設日間照顧",
      "GROUP_NAME": "臺北市老人日間照顧中心"
    },
    "L1_CODE": "04",
    "PERSON_IN_CHARGE": "胡世賢"
  },
  {
    "POST_DATE": "2016/5/23 上午 12:00:00",
    "CITY": "臺北市",
    "LON": "121.6187000",
    "ADDRESS": "臺北市11478康樂街136巷15弄5號",
    "PHONE": "02-26307538",
    "CONTACT_NAME": "",
    "L1_NAME": "銀髮族服務",
    "LAT": "25.0721529",
    "ZONE_CODE": "11478",
    "WEB_HOMEPAGE": "",
    "DEPT_NAME": "",
    "ADDRESS_CODE": "04029118437393092633",
    "FAX": "02-26307539",
    "DIVISION": "內湖區",
    "ORG": {
      "INTRODUCTION": "",
      "TYPE": "06",
      "NAME": "臺北市內湖區老人日間照顧服務",
      "GROUP_NAME": "臺北市老人日間照顧中心"
    },
    "L1_CODE": "04",
    "PERSON_IN_CHARGE": ""
  },
  {
    "POST_DATE": "2014/3/24 上午 12:00:00",
    "CITY": "臺北市",
    "LON": "121.5284290",
    "ADDRESS": "臺北市10459新生北路二段101巷2號2樓",
    "PHONE": "02-25420006",
    "CONTACT_NAME": "林書芳督導",
    "L1_NAME": "銀髮族服務",
    "LAT": "25.0573180",
    "ZONE_CODE": "10459",
    "WEB_HOMEPAGE": "",
    "DEPT_NAME": "",
    "ADDRESS_CODE": "04112355427187681199",
    "FAX": "02-25420222",
    "DIVISION": "中山區",
    "ORG": {
      "INTRODUCTION": "◎委託財團法人台灣省私立健順養護中心一、個案照顧管理。二、長者生活照顧服務：個人衛生、安全維護、餐點、午憩、交通服務。三、協助及促進老人自我照顧能力。四、提供長者家屬教育方案、支持團體及聯誼性活動。",
      "TYPE": "06",
      "NAME": "臺北市中山老人住宅暨服務中心",
      "GROUP_NAME": "臺北市老人日間照顧中心"
    },
    "L1_CODE": "04",
    "PERSON_IN_CHARGE": "黃禎祥"
  },
  {
    "POST_DATE": "2016/5/23 上午 12:00:00",
    "CITY": "臺北市",
    "LON": "121.5176482",
    "ADDRESS": "臺北市11282裕民六路120號3樓",
    "PHONE": "02-28218267",
    "CONTACT_NAME": "",
    "L1_NAME": "銀髮族服務",
    "LAT": "25.1145350",
    "ZONE_CODE": "11282",
    "WEB_HOMEPAGE": "",
    "DEPT_NAME": "",
    "ADDRESS_CODE": "04118437454601466656",
    "FAX": "02-28217063",
    "DIVISION": "北投區",
    "ORG": {
      "INTRODUCTION": "",
      "TYPE": "06",
      "NAME": "臺北市北投區老人日間照顧服務",
      "GROUP_NAME": "臺北市老人日間照顧中心"
    },
    "L1_CODE": "04",
    "PERSON_IN_CHARGE": ""
  },
  {
    "POST_DATE": "2016/5/23 上午 12:00:00",
    "CITY": "臺北市",
    "LON": "121.5339152",
    "ADDRESS": "臺北市10660新生南路三段52-5號5樓",
    "PHONE": "02-23661321",
    "CONTACT_NAME": "",
    "L1_NAME": "銀髮族服務",
    "LAT": "25.0211474",
    "ZONE_CODE": "10660",
    "WEB_HOMEPAGE": "",
    "DEPT_NAME": "",
    "ADDRESS_CODE": "04118437609874904156",
    "FAX": "02-23661323",
    "DIVISION": "大安區",
    "ORG": {
      "INTRODUCTION": "",
      "TYPE": "06",
      "NAME": "臺北市大安區老人日間照顧服務",
      "GROUP_NAME": "臺北市老人日間照顧中心"
    },
    "L1_CODE": "04",
    "PERSON_IN_CHARGE": ""
  },
  {
    "POST_DATE": "2015/2/13 上午 12:00:00",
    "CITY": "臺北市",
    "LON": "121.4911210",
    "ADDRESS": "臺北市11573重陽路187巷5號2樓",
    "PHONE": "02-26535311",
    "CONTACT_NAME": "蔡璧徽主任",
    "L1_NAME": "銀髮族服務",
    "LAT": "25.0689049",
    "ZONE_CODE": "11573",
    "WEB_HOMEPAGE": "http://blog.roodo.com/nkelder",
    "DEPT_NAME": "資訊室",
    "ADDRESS_CODE": "04119477810305356980",
    "FAX": "02-26522081",
    "DIVISION": "南港區",
    "ORG": {
      "INTRODUCTION": "◎委託財團法人台灣省私立健順養護中心一、個案照顧管理。二、長者生活照顧服務：個人衛生、安全維護、餐點、午憩、交通服務。三、協助及促進老人自我照顧能力。四、提供長者家屬教育方案、支持團體及聯誼性活動。",
      "TYPE": "06",
      "NAME": "臺北市南港老人服務暨日間照顧中心",
      "GROUP_NAME": "臺北市老人日間照顧中心"
    },
    "L1_CODE": "04",
    "PERSON_IN_CHARGE": "黃禎祥"
  },
  {
    "POST_DATE": "2014/3/24 上午 12:00:00",
    "CITY": "臺北市",
    "LON": "121.5452240",
    "ADDRESS": "臺北市10629仁愛路四段10號5樓",
    "PHONE": "02-27093600轉3159",
    "CONTACT_NAME": "王心怡",
    "L1_NAME": "銀髮族服務",
    "LAT": "25.0375120",
    "ZONE_CODE": "10629",
    "WEB_HOMEPAGE": "",
    "DEPT_NAME": "",
    "ADDRESS_CODE": "04218714551943540574",
    "FAX": "",
    "DIVISION": "大安區",
    "ORG": {
      "INTRODUCTION": "一、個案照顧管理。二、長者生活照顧服務：個人衛生、安全維護、餐點、午憩、交通服務。三、協助及促進老人自我照顧能力。四、提供長者家屬教育方案、支持團體及聯誼性活動。",
      "TYPE": "06",
      "NAME": "臺北市立聯合醫院仁愛院區附設仁鶴軒失智日間病房",
      "GROUP_NAME": "臺北市老人日間照顧中心"
    },
    "L1_CODE": "04",
    "PERSON_IN_CHARGE": "甄瑞興"
  },
  {
    "POST_DATE": "2014/3/24 上午 12:00:00",
    "CITY": "臺北市",
    "LON": "121.4969430",
    "ADDRESS": "臺北市10868德昌街125巷11號",
    "PHONE": "02-23046716轉108",
    "CONTACT_NAME": "江慧如",
    "L1_NAME": "銀髮族服務",
    "LAT": "25.0236620",
    "ZONE_CODE": "10868",
    "WEB_HOMEPAGE": "",
    "DEPT_NAME": "",
    "ADDRESS_CODE": "04218768890017271042",
    "FAX": "02-23320877",
    "DIVISION": "萬華區",
    "ORG": {
      "INTRODUCTION": "一、個案照顧管理。二、長者生活照顧服務：個人衛生、安全維護、餐點、午憩、交通服務。三、協助及促進老人自我照顧能力。四、提供長者家屬教育方案、支持團體及聯誼性活動。",
      "TYPE": "06",
      "NAME": "財團法人天主教失智老人社會福利基金會附設臺北市私立聖若瑟失智老人養護中心附設日間照顧",
      "GROUP_NAME": "臺北市老人日間照顧中心"
    },
    "L1_CODE": "04",
    "PERSON_IN_CHARGE": "洪三川"
  },
  {
    "POST_DATE": "2014/3/24 上午 12:00:00",
    "CITY": "臺北市",
    "LON": "121.5311375",
    "ADDRESS": "臺北市11146雨聲街-105號",
    "PHONE": "02-28353456轉8310",
    "CONTACT_NAME": "林靜玉",
    "L1_NAME": "銀髮族服務",
    "LAT": "25.1046310",
    "ZONE_CODE": "11146",
    "WEB_HOMEPAGE": "",
    "DEPT_NAME": "",
    "ADDRESS_CODE": "04462395863567531109",
    "FAX": "02-28389183",
    "DIVISION": "士林區",
    "ORG": {
      "INTRODUCTION": "一、個案照顧管理。二、長者生活照顧服務：個人衛生、安全維護、餐點、午憩、交通服務。三、協助及促進老人自我照顧能力。四、提供長者家屬教育方案、支持團體及聯誼性活動。",
      "TYPE": "06",
      "NAME": "臺北市立聯合醫院陽明院區得憶齋失智失能日間照顧中心",
      "GROUP_NAME": "臺北市老人日間照顧中心"
    },
    "L1_CODE": "04",
    "PERSON_IN_CHARGE": "詹金烈"
  },
  {
    "POST_DATE": "2013/5/23 下午 02:16:05",
    "CITY": "臺北市",
    "LON": "121.5666782",
    "ADDRESS": "臺北市11444內湖路一段285號6樓",
    "PHONE": "02-26561700",
    "CONTACT_NAME": "黃淑華副主任",
    "L1_NAME": "銀髮族服務",
    "LAT": "25.0826642",
    "ZONE_CODE": "11444",
    "WEB_HOMEPAGE": "",
    "DEPT_NAME": "",
    "ADDRESS_CODE": "04533941584414243699",
    "FAX": "02-26561701",
    "DIVISION": "內湖區",
    "ORG": {
      "INTRODUCTION": "",
      "TYPE": "06",
      "NAME": "臺北市西湖老人日間照顧中心",
      "GROUP_NAME": "臺北市老人日間照顧中心"
    },
    "L1_CODE": "04",
    "PERSON_IN_CHARGE": "許本爵"
  },
  {
    "POST_DATE": "2016/8/4 上午 12:00:00",
    "CITY": "臺北市",
    "LON": "121.5211335",
    "ADDRESS": "臺北市10093羅斯福路二段5號2樓",
    "PHONE": "2351-0005",
    "CONTACT_NAME": "",
    "L1_NAME": "銀髮族服務",
    "LAT": "25.0292174",
    "ZONE_CODE": "10093",
    "WEB_HOMEPAGE": "",
    "DEPT_NAME": "",
    "ADDRESS_CODE": "04561877168081080914",
    "FAX": "",
    "DIVISION": "中正區",
    "ORG": {
      "INTRODUCTION": "",
      "TYPE": "06",
      "NAME": "臺北市中正區多元照顧中心(小規模多機能服務)",
      "GROUP_NAME": "臺北市老人日間照顧中心"
    },
    "L1_CODE": "04",
    "PERSON_IN_CHARGE": ""
  },
  {
    "POST_DATE": "2013/5/23 下午 02:16:05",
    "CITY": "臺北市",
    "LON": "121.5646800",
    "ADDRESS": "臺北市10564南京東路五段251巷46弄5號1-3樓",
    "PHONE": "02-27616300",
    "CONTACT_NAME": "鐘智馨",
    "L1_NAME": "銀髮族服務",
    "LAT": "25.0533179",
    "ZONE_CODE": "10564",
    "WEB_HOMEPAGE": "",
    "DEPT_NAME": "",
    "ADDRESS_CODE": "04921458108156919480",
    "FAX": "02-27617599",
    "DIVISION": "松山區",
    "ORG": {
      "INTRODUCTION": "◎委託中華民國弘道志工協會一、個案照顧管理：提供及擬訂個別照顧計畫及處遇、緊急事件處理。二、長者生活照顧服務：個人衛生、安全維護、餐點、午憩、交通服務。三、協助及促進老人自我照顧能力。四、提供長者家屬教育方案、支持團體及聯誼性活動。",
      "TYPE": "06",
      "NAME": "臺北市松山老人日間照顧中心",
      "GROUP_NAME": "臺北市老人日間照顧中心"
    },
    "L1_CODE": "04",
    "PERSON_IN_CHARGE": "柯麗鏞"
  },
  {
    "POST_DATE": "2014/3/24 上午 12:00:00",
    "CITY": "臺北市",
    "LON": "121.5322970",
    "ADDRESS": "臺北市11148忠誠路二段53巷7號6樓",
    "PHONE": "02-28381571",
    "CONTACT_NAME": "周志展副主任",
    "L1_NAME": "銀髮族服務",
    "LAT": "25.1114379",
    "ZONE_CODE": "11148",
    "WEB_HOMEPAGE": "",
    "DEPT_NAME": "",
    "ADDRESS_CODE": "04921469240969419480",
    "FAX": "02-28381572",
    "DIVISION": "士林區",
    "ORG": {
      "INTRODUCTION": "◎委託財團法人臺北市中國基督教靈糧世界佈道會士林靈糧堂一、個案照顧管理：提供及擬訂個別照顧計畫及處遇、緊急事件處理。二、長者生活照顧服務。三、協助及促進老人自我照顧能力。四、提供長者家屬教育方案、支持團體及聯誼性活動。",
      "TYPE": "06",
      "NAME": "臺北市士林老人服務暨日間照顧中心",
      "GROUP_NAME": "臺北市老人日間照顧中心"
    },
    "L1_CODE": "04",
    "PERSON_IN_CHARGE": "許本爵"
  },
  {
    "POST_DATE": "2016/7/4 上午 12:00:00",
    "CITY": "臺北市",
    "LON": "121.4975209",
    "ADDRESS": "臺北市10853梧州街36號3樓",
    "PHONE": "02-23361880、02-23361881",
    "CONTACT_NAME": "林蘭因",
    "L1_NAME": "銀髮族服務",
    "LAT": "25.0373273",
    "ZONE_CODE": "10853",
    "WEB_HOMEPAGE": "",
    "DEPT_NAME": "",
    "ADDRESS_CODE": "04921476278322935105",
    "FAX": "02-23368831",
    "DIVISION": "萬華區",
    "ORG": {
      "INTRODUCTION": "◎委託財團法人臺北市立心慈善基金會一、個案照顧管理。二、長者生活照顧服務：個人衛生、安全維護、餐點、午憩、交通服務。三、協助及促進老人自我照顧能力。四、提供長者家屬教育方案、支持團體及聯誼性活動。",
      "TYPE": "06",
      "NAME": "臺北市萬華龍山老人服務暨日間照顧中心",
      "GROUP_NAME": "臺北市老人日間照顧中心"
    },
    "L1_CODE": "04",
    "PERSON_IN_CHARGE": "洪金桐"
  },
  {
    "POST_DATE": "2015/2/13 上午 12:00:00",
    "CITY": "臺北市",
    "LON": "121.5162700",
    "ADDRESS": "臺北市10361昌吉街52號9-10樓",
    "PHONE": "02-25988710",
    "CONTACT_NAME": "洪嘉恩",
    "L1_NAME": "銀髮族服務",
    "LAT": "25.0657870",
    "ZONE_CODE": "10361",
    "WEB_HOMEPAGE": "http://www.mmh.org.tw/taitam/commnurs/daycare.htm",
    "DEPT_NAME": "資訊室",
    "ADDRESS_CODE": "04921479652041196824",
    "FAX": "02-25988708",
    "DIVISION": "大同區",
    "ORG": {
      "INTRODUCTION": "◎委託財團法人臺灣基督長老教會馬偕紀念社會事業基金會馬偕紀念醫院一、個案照顧管理。二、長者生活照顧服務：個人衛生、安全維護、餐點、午憩、交通服務。三、協助及促進老人自我照顧能力。四、提供長者家屬教育方案、支持團體及聯誼性活動。",
      "TYPE": "06",
      "NAME": "臺北市大同老人日間照顧中心",
      "GROUP_NAME": "臺北市老人日間照顧中心"
    },
    "L1_CODE": "04",
    "PERSON_IN_CHARGE": "楊育正"
  },
  {
    "POST_DATE": "2015/2/13 上午 12:00:00",
    "CITY": "臺北市",
    "LON": "121.5674730",
    "ADDRESS": "臺北市11070松隆路36號5樓",
    "PHONE": "02-87870300",
    "CONTACT_NAME": "許雅青主任",
    "L1_NAME": "銀髮族服務",
    "LAT": "25.0433609",
    "ZONE_CODE": "11070",
    "WEB_HOMEPAGE": "https://zh-tw.facebook.com/redheartxinyitw",
    "DEPT_NAME": "資訊室",
    "ADDRESS_CODE": "04921481814211606980",
    "FAX": "02-87870307",
    "DIVISION": "信義區",
    "ORG": {
      "INTRODUCTION": "◎委託中華民國紅心字會一、個案照顧管理：提供及擬訂個別照顧計畫及處遇、緊急事件處理。二、長者生活照顧服務：個人衛生、安全維護、餐點、午憩、交通服務。三、協助及促進老人自我照顧能力。四、提供長者家屬教育方案、支持團體及聯誼性活動。",
      "TYPE": "06",
      "NAME": "臺北市信義老人服務暨日間照顧中心",
      "GROUP_NAME": "臺北市老人日間照顧中心"
    },
    "L1_CODE": "04",
    "PERSON_IN_CHARGE": "劉緒倫"
  },
  {
    "POST_DATE": "2014/3/24 上午 12:00:00",
    "CITY": "臺北市",
    "LON": "121.5468941",
    "ADDRESS": "臺北市11687興隆路二段95巷8號3樓",
    "PHONE": "02-89313190轉13",
    "CONTACT_NAME": "李秋緣",
    "L1_NAME": "銀髮族服務",
    "LAT": "25.0000196",
    "ZONE_CODE": "11687",
    "DEPT_NAME": "",
    "ADDRESS_CODE": "04921496285647153855",
    "FAX": "02-89311421",
    "DIVISION": "文山區",
    "ORG": {
      "INTRODUCTION": "◎委託財團法人獎卿護理展望基金會一、個案照顧管理。二、長者生活照顧服務：個人衛生、安全維護、餐點、午憩、交通服務。三、協助及促進老人自我照顧能力。四、提供長者家屬教育方案、支持團體及聯誼性活動。",
      "TYPE": "06",
      "NAME": "臺北市文山老人養護中心附設日間照顧",
      "GROUP_NAME": "臺北市老人日間照顧中心"
    },
    "L1_CODE": "04",
    "PERSON_IN_CHARGE": "杜敏世"
  }
]